[{'status': 0, 'message': 'ok', 'total': 0, 'results': []}, {'status': 0, 'message': 'ok', 'total': 0, 'results': []}, {'status': 0, 'message': 'ok', 'total': 0, 'results': []}, {'status': 0, 'message': 'ok', 'total': 0, 'results': []}, {'status': 0, 'message': 'ok', 'total': 0, 'results': []}, {'status': 0, 'message': 'ok', 'total': 0, 'results': []}, {'status': 0, 'message': 'ok', 'total': 0, 'results': []}, {'status': 0, 'message': 'ok', 'total': 0, 'results': []}, {'status': 0, 'message': 'ok', 'total': 0, 'results': []}, {'status': 0, 'message': 'ok', 'total': 0, 'results': []}, {'status': 0, 'message': 'ok', 'total': 1, 'results': [{'name': 'æ­¦æ±å¸æ´ªå±±åºç¦å©é¢', 'location': {'lat': 30.483974, 'lng': 114.300454}, 'address': 'æ¹åçæ­¦æ±å¸æ´ªå±±åºç½æ²æ´²ä¸è·¯ä¸ç½èè·¯äº¤æ±å¤ä¸å', 'province': 'æ¹åç', 'city': 'æ­¦æ±å¸', 'area': 'æ´ªå±±åº', 'street_id': '750ec165000a7c2b4d3a5991', 'detail': 1, 'uid': '750ec165000a7c2b4d3a5991'}]}, {'status': 0, 'message': 'ok', 'total': 0, 'results': []}, {'status': 0, 'message': 'ok', 'total': 3, 'results': [{'name': 'æ²é³ç¦å©é¢-è¥¿åé¨', 'location': {'lat': 30.497404, 'lng': 114.148433}, 'address': 'è½¦åå¤§é392å·', 'province': 'æ¹åç', 'city': 'æ­¦æ±å¸', 'area': 'è¡ç¸åº', 'street_id': 'f4bbf9520352c3b3eb1e9705', 'detail': 1, 'uid': 'f4bbf9520352c3b3eb1e9705'}, {'name': 'æ²é³ç¦å©é¢', 'location': {'lat': 30.497166, 'lng': 114.148962}, 'address': 'è½¦åå¤§é392å·', 'province': 'æ¹åç', 'city': 'æ­¦æ±å¸', 'area': 'è¡ç¸åº', 'street_id': '0adce3e2a483e66181a00c86', 'telephone': '(027)84239199', 'detail': 1, 'uid': '9dfc681426bbdf847adbd2f5'}, {'name': 'æ¤æå¾·å±å®¶å»è', 'location': {'lat': 30.512002, 'lng': 114.182989}, 'address': 'ç»å¼ä¸è¾¾G52', 'province': 'æ¹åç', 'city': 'æ­¦æ±å¸', 'area': 'æ±é³åº', 'street_id': '4ce7820be619bbe70482c216', 'telephone': '(027)84635595', 'detail': 1, 'uid': '4ce7820be619bbe70482c216'}]}, {'status': 0, 'message': 'ok', 'total': 0, 'results': []}, {'status': 0, 'message': 'ok', 'total': 6, 'results': [{'name': 'æ±é³åºåæ°ç®¡å§ä¼èå¹´äººæå¡ä¸­å¿', 'location': {'lat': 30.516586, 'lng': 114.216134}, 'address': 'æ¹åçæ­¦æ±å¸æ±é³åºæéä¹¡è°¢å®¶ç¶æ39å·', 'province': 'æ¹åç', 'city': 'æ­¦æ±å¸', 'area': 'æ±é³åº', 'street_id': '1e7c24f23d64b7fe88db73e2', 'detail': 1, 'uid': '1e7c24f23d64b7fe88db73e2'}, {'name': 'æ­¦æ±å¸æ±é³åºç¤¾ä¼ç¦å©é¢-è¥¿åé¨', 'location': {'lat': 30.530039, 'lng': 114.241667}, 'address': 'æ¨æ³æ¸¯å¿«éè·¯å100ç±³', 'province': 'æ¹åç', 'city': 'æ­¦æ±å¸', 'area': 'æ±é³åº', 'detail': 1, 'uid': '41ca88a23a2c64a2f02d8374'}, {'name': 'æ­¦æ±å¸æ±é³åºç¤¾ä¼ç¦å©é¢-åè½¦åº', 'location': {'lat': 30.530597, 'lng': 114.241741}, 'address': 'æ¹åçæ­¦æ±å¸æ±é³åºæ¨æ³æ¸¯å¿«ééé', 'province': 'æ¹åç', 'city': 'æ­¦æ±å¸', 'area': 'æ±é³åº', 'detail': 1, 'uid': 'f2cd1d61e23d9e910482c278'}, {'name': 'æ´²å¤´è¡å¤é³çº¢èå¹´å¬å¯(æ´²å¤´äºè·¯)', 'location': {'lat': 30.531495, 'lng': 114.259904}, 'address': 'æ´²å¤´äºæ142å·', 'province': 'æ¹åç', 'city': 'æ­¦æ±å¸', 'area': 'æ±é³åº', 'street_id': '2c0dcf2b576d45d39a005070', 'telephone': '(027)84530140', 'detail': 1, 'uid': '2c0dcf2b576d45d39a005070'}, {'name': 'æ­¦æ±å¸æ±é³åºç¤¾ä¼ç¦å©é¢', 'location': {'lat': 30.530374, 'lng': 114.241649}, 'address': 'æ¹åçæ­¦æ±å¸æ±é³åºæ±æ¨æ³æ¸¯å¿«éééå ¤è¡åäºå¤å¬å¬å', 'province': 'æ¹åç', 'city': 'æ­¦æ±å¸', 'area': 'æ±é³åº', 'street_id': '71d8069834a977c6d8131801', 'detail': 1, 'uid': '71d8069834a977c6d8131801'}, {'name': 'è¿éæ¸¯è¥¿è·¯æ±é³ç¦å©é¢', 'location': {'lat': 30.53143, 'lng': 114.239679}, 'address': '42è·¯;517è·¯;547è·¯;yx42è·¯', 'province': 'æ¹åç', 'city': 'æ­¦æ±å¸', 'area': 'æ±é³åº', 'detail': 0, 'uid': '9650595e4d97b8fdae0457b1'}]}, {'status': 0, 'message': 'ok', 'total': 0, 'results': []}, {'status': 0, 'message': 'ok', 'total': 3, 'results': [{'name': 'æ­¦æåºç¤¾ä¼ç¦å©æå¡ä¸­å¿ç½æ²æ´²åº', 'location': {'lat': 30.528516, 'lng': 114.304033}, 'address': 'å«éºè¡83', 'province': 'æ¹åç', 'city': 'æ­¦æ±å¸', 'area': 'æ­¦æåº', 'street_id': 'fc05e1b20a202c4ac51e51a5', 'detail': 1, 'uid': 'fc05e1b20a202c4ac51e51a5'}, {'name': 'æ´ªå±±ç¤¾ä¼ç¦å©é¢-ä¸åé¨', 'location': {'lat': 30.508498, 'lng': 114.385293}, 'address': 'æ¥éå¤§é638å·', 'province': 'æ¹åç', 'city': 'æ­¦æ±å¸', 'area': 'æ´ªå±±åº', 'street_id': '45d17ce5f4e347c63913fd4b', 'detail': 1, 'uid': '45d17ce5f4e347c63913fd4b'}, {'name': 'æ­¦æ³°é¸æ¶å®¶æ²èæ¥ä¹ç¤¾åºç¦å©é¢-è¥¿åé¨', 'location': {'lat': 30.521615, 'lng': 114.312219}, 'address': 'å»ºè¹è·¯ä¸é¢åè·¯äº¤åå£ä¸100ç±³', 'province': 'æ¹åç', 'city': 'æ­¦æ±å¸', 'area': 'æ­¦æåº', 'street_id': 'b9b016daea018ad7aecb66a1', 'detail': 1, 'uid': 'b9b016daea018ad7aecb66a1'}]}, {'status': 0, 'message': 'ok', 'total': 0, 'results': []}, {'status': 0, 'message': 'ok', 'total': 0, 'results': []}, {'status': 0, 'message': 'ok', 'total': 0, 'results': []}, {'status': 0, 'message': 'ok', 'total': 4, 'results': [{'name': 'æ­¦æ±å¸ç¬¬äºç¤¾ä¼ç¦å©é¢(æ­¦æ±é¾æ³å±±é¦è£åº¦åéåºä¸å)', 'location': {'lat': 30.422223, 'lng': 114.52447}, 'address': 'æ¹åçæ­¦æ±å¸æ±å¤åºæµè³è¡éé¾æ³å±±é£æ¯åº', 'province': 'æ¹åç', 'city': 'æ­¦æ±å¸', 'area': 'æ±å¤åº', 'detail': 1, 'uid': '93e3588926b73aae2dfaa7c0'}, {'name': 'æ­¦æ±å¸ç¬¬äºç¤¾ä¼ç¦å©é¢(é¾æ³å¤§é)', 'location': {'lat': 30.422029, 'lng': 114.519195}, 'address': 'æ­¦æ±å¸æ±å¤åºé¾æ³å¤§é', 'province': 'æ¹åç', 'city': 'æ­¦æ±å¸', 'area': 'æ±å¤åº', 'detail': 1, 'uid': '306cb30b82a2bdb5ca2915b3'}, {'name': 'æµè³ç¦å©é¢', 'location': {'lat': 30.397094, 'lng': 114.538302}, 'address': 'æ­¦æ±å¸æ±å¤åº004å¿éå200ç±³', 'province': 'æ¹åç', 'city': 'æ­¦æ±å¸', 'area': 'æ±å¤åº', 'detail': 1, 'uid': '8bb800d7cbe890466d20b944'}, {'name': 'æ­¦æ±å¸å¿ç«¥ç¦å©é¢(é¾æ³å±±é¢åº)', 'location': {'lat': 30.42209, 'lng': 114.528965}, 'address': 'æ±å¤é¾æ³å±±é£æ¯åºé­å®¶ç18å·', 'province': 'æ¹åç', 'city': 'æ­¦æ±å¸', 'area': 'æ±å¤åº', 'telephone': '(027)81937056', 'detail': 1, 'uid': '98f9e35f2f7ca22db8bd63dd'}]}, {'status': 0, 'message': 'ok', 'total': 0, 'results': []}, {'status': 0, 'message': 'ok', 'total': 0, 'results': []}, {'status': 0, 'message': 'ok', 'total': 0, 'results': []}, {'status': 0, 'message': 'ok', 'total': 1, 'results': [{'name': 'æ­¦æ±ä¸æ¹æ°ææ¯å¼ååºä½ç¥å²­ç¦å©é¢', 'location': {'lat': 30.450686, 'lng': 114.451639}, 'address': 'æ¹åçæ­¦æ±å¸æ±å¤åºåè°·æ­¦æ±é³åèå¹´çå»é¢(æµè³ä¸è·¯)', 'province': 'æ¹åç', 'city': 'æ­¦æ±å¸', 'area': 'æ±å¤åº', 'street_id': 'b492615995a75c910ab93a77', 'detail': 1, 'uid': 'b492615995a75c910ab93a77'}]}, {'status': 0, 'message': 'ok', 'total': 0, 'results': []}, {'status': 0, 'message': 'ok', 'total': 2, 'results': [{'name': 'ä¸æ¹é«æ°åºè±¹æ¾¥ç¦å©é¢', 'location': {'lat': 30.461163, 'lng': 114.544762}, 'address': 'æ¹åçæ­¦æ±å¸æ±å¤åºè±¹æ¾¥è¡éæ¡¥è¥¿è·¯ä¸æ¹é«æ°åºè±¹æ¾¥ç¦å©é¢', 'province': 'æ¹åç', 'city': 'æ­¦æ±å¸', 'area': 'æ±å¤åº', 'street_id': '92ce18c0740849e6f5c59cf9', 'detail': 1, 'uid': '92ce18c0740849e6f5c59cf9'}, {'name': 'ä¸æ¹é«æ°åºè±¹æ¾¥ç¦å©é¢-åé¨', 'location': {'lat': 30.461079, 'lng': 114.544706}, 'address': 'æ¹åçæ­¦æ±å¸æ±å¤åºé«æ°äºè·¯å200ç±³', 'province': 'æ¹åç', 'city': 'æ­¦æ±å¸', 'area': 'æ±å¤åº', 'street_id': '89245ec6e38e1b88932ca302', 'detail': 1, 'uid': '89245ec6e38e1b88932ca302'}]}, {'status': 0, 'message': 'ok', 'total': 0, 'results': []}, {'status': 0, 'message': 'ok', 'total': 1, 'results': [{'name': 'åºå²­ç¦å©é¢', 'location': {'lat': 30.444887, 'lng': 114.634316}, 'address': 'æ¹åçéå·å¸åå®¹åºæ°æè·¯', 'province': 'æ¹åç', 'city': 'éå·å¸', 'area': 'åå®¹åº', 'detail': 1, 'uid': '6ba0d391a7bdf08d1ce999d4'}]}, {'status': 0, 'message': 'ok', 'total': 0, 'results': []}, {'status': 0, 'message': 'ok', 'total': 1, 'results': [{'name': 'æ´ªå±±åºå³å±±è¡çººå¤§ç¤¾åºå±å®¶å»èæå¡ä¸­å¿', 'location': {'lat': 30.488601, 'lng': 114.403842}, 'address': 'çººç»è·¯ä¸ç»çº¬ä¸è·¯äº¤åå£å150ç±³', 'province': 'æ¹åç', 'city': 'æ­¦æ±å¸', 'area': 'æ´ªå±±åº', 'street_id': '53302594dc3ed4d89e9d6873', 'detail': 1, 'uid': '53302594dc3ed4d89e9d6873'}]}, {'status': 0, 'message': 'ok', 'total': 0, 'results': []}, {'status': 0, 'message': 'ok', 'total': 2, 'results': [{'name': 'ä¹å³°ä¹¡ç¦å©é¢', 'location': {'lat': 30.507693, 'lng': 114.485496}, 'address': 'æ°å±æ¢éè¿', 'province': 'æ¹åç', 'city': 'æ­¦æ±å¸', 'area': 'æ´ªå±±åº', 'street_id': 'd72e6a4afc06430bf8dc85c5', 'detail': 1, 'uid': 'd72e6a4afc06430bf8dc85c5'}, {'name': 'æ¹åé¸ä»èå¥åº·å»èå­', 'location': {'lat': 30.51367, 'lng': 114.49386}, 'address': 'æ£®æå¤§éå50ç±³', 'province': 'æ¹åç', 'city': 'æ­¦æ±å¸', 'area': 'æ´ªå±±åº', 'detail': 1, 'uid': '35a09c48b96bec155cbe86dd'}]}, {'status': 0, 'message': 'ok', 'total': 0, 'results': []}, {'status': 0, 'message': 'ok', 'total': 0, 'results': []}, {'status': 0, 'message': 'ok', 'total': 0, 'results': []}, {'status': 0, 'message': 'ok', 'total': 1, 'results': [{'name': 'æ±é³åºç¤¾ä¼ç¦å©é¢(æ°¸ä¸°åé¢)', 'location': {'lat': 30.563555, 'lng': 114.149753}, 'address': 'æ±é³å¤§éå150ç±³', 'province': 'æ¹åç', 'city': 'æ­¦æ±å¸', 'area': 'æ±é³åº', 'street_id': '34059f976e3f605771455be7', 'detail': 1, 'uid': '34059f976e3f605771455be7'}]}, {'status': 0, 'message': 'ok', 'total': 0, 'results': []}, {'status': 0, 'message': 'ok', 'total': 6, 'results': [{'name': 'æ°æè¡ç¤¾ä¼ç¦å©é¢', 'location': {'lat': 30.580786, 'lng': 114.293277}, 'address': 'æ°æè¡ç§¯åºé', 'province': 'æ¹åç', 'city': 'æ­¦æ±å¸', 'area': 'æ±æ±åº', 'street_id': '548a5cd8a27743b2fc0eb0ba', 'detail': 1, 'uid': '548a5cd8a27743b2fc0eb0ba'}, {'name': 'æ±é³åºäºéå¸¸éèå¹´å¬å¯', 'location': {'lat': 30.555996, 'lng': 114.258512}, 'address': 'äºéå¢©è¡åäºå¤æ±é³å¤§é365å·äºé', 'province': 'æ¹åç', 'city': 'æ­¦æ±å¸', 'area': 'æ±é³åº', 'street_id': '00f1c7fb602b7c62c056ac0a', 'detail': 1, 'uid': '00f1c7fb602b7c62c056ac0a'}, {'name': 'æ±æ±åºè±æ¥¼æ°´å¡è¡å±å®¶å»èæå¡ä¸­å¿', 'location': {'lat': 30.585898, 'lng': 114.293471}, 'address': 'æ°ä¸»ä¸è¡165-1å·', 'province': 'æ¹åç', 'city': 'æ­¦æ±å¸', 'area': 'æ±æ±åº', 'street_id': '70de42be1fadd42d3486f4b6', 'detail': 1, 'uid': '70de42be1fadd42d3486f4b6'}, {'name': 'ç¶æ¯æç¦å©é¢', 'location': {'lat': 30.579594, 'lng': 114.275788}, 'address': 'æ­¦æ±å¸ç¡å£åºè£åä¸æ4å·', 'province': 'æ¹åç', 'city': 'æ­¦æ±å¸', 'area': 'ç¡å£åº', 'street_id': '0181a11ae4f72d61a21de908', 'telephone': '(027)85421773', 'detail': 1, 'uid': '0181a11ae4f72d61a21de908'}, {'name': 'æ°åè¡ç¤¾åºèå¹´ç¦å©é¢', 'location': {'lat': 30.588088, 'lng': 114.286628}, 'address': 'åæ´æ10', 'province': 'æ¹åç', 'city': 'æ­¦æ±å¸', 'area': 'æ±æ±åº', 'street_id': '8bace6908f590d794251c00a', 'telephone': '18971516402', 'detail': 1, 'uid': '8bace6908f590d794251c00a'}, {'name': 'æ­¦æ±å¸æ±æ±åºä¸æ¾è¡å±å®¶å»èæå¡ä¸­å¿', 'location': {'lat': 30.594893, 'lng': 114.272585}, 'address': 'æ¹åçæ­¦æ±å¸æ±æ±åºä¸æ¾å­æ¨ªè·¯1', 'province': 'æ¹åç', 'city': 'æ­¦æ±å¸', 'area': 'æ±æ±åº', 'street_id': '287cb52e9f0f9e42c829154c', 'detail': 1, 'uid': '287cb52e9f0f9e42c829154c'}]}, {'status': 0, 'message': 'ok', 'total': 0, 'results': []}, {'status': 0, 'message': 'ok', 'total': 8, 'results': [{'name': 'æ­¦æ±å¸ææµå¿ç«¥ç¦å©é¢-è¥¿åé¨', 'location': {'lat': 30.55675, 'lng': 114.313746}, 'address': 'è­èè·¯ä¸éå®¶å··äº¤åå£ä¸50ç±³', 'province': 'æ¹åç', 'city': 'æ­¦æ±å¸', 'area': 'æ­¦æåº', 'detail': 1, 'uid': '997570c28b1f0a9971210bbc'}, {'name': 'æ­¦æ±å¸æ´ªå±±åºç¦æ³°èå¹´å¬å¯', 'location': {'lat': 30.585339, 'lng': 114.373318}, 'address': 'ä¸­åä¸è·¯24é12å·', 'province': 'æ¹åç', 'city': 'æ­¦æ±å¸', 'area': 'æ´ªå±±åº', 'street_id': '5975e936718bb6f841afe6bc', 'telephone': '(027)88776226,(027)88166617', 'detail': 1, 'uid': '5975e936718bb6f841afe6bc'}, {'name': 'æ·é¨å··ç¤¾åºå±å®¶å»èæå¡ä¸­å¿', 'location': {'lat': 30.553377, 'lng': 114.302603}, 'address': 'ä¸­åè·¯è¡åäºå¤æ°ä¸»è·¯25å·', 'province': 'æ¹åç', 'city': 'æ­¦æ±å¸', 'area': 'æ­¦æåº', 'street_id': '9bff9f6df5db9c574acc4a6d', 'detail': 1, 'uid': '9bff9f6df5db9c574acc4a6d'}, {'name': 'æ­¦æ±å¸æ­¦æåºç¤¾ä¼ç¦å©é¢', 'location': {'lat': 30.553977, 'lng': 114.312237}, 'address': 'æ¹åçæ­¦æ±å¸æ­¦æåºç²®éè¡109å·', 'province': 'æ¹åç', 'city': 'æ­¦æ±å¸', 'area': 'æ­¦æåº', 'street_id': '730cb7627ab17a5a2ce67b7b', 'detail': 1, 'uid': '730cb7627ab17a5a2ce67b7b'}, {'name': 'å¤©é¢ä¹å®¶', 'location': {'lat': 30.572699, 'lng': 114.366431}, 'address': 'ä¸äº­è·¯ä¸é»é¹è·¯äº¤åå£å150ç±³', 'province': 'æ¹åç', 'city': 'æ­¦æ±å¸', 'area': 'æ­¦æåº', 'street_id': '9ebf6e5807a81afcd0ff2360', 'detail': 1, 'uid': '9ebf6e5807a81afcd0ff2360'}, {'name': 'æ­¦æ±å¸æ­¦æåºç¤¾ä¼ç¦å©é¢-è¥¿åé¨', 'location': {'lat': 30.553793, 'lng': 114.312301}, 'address': 'ç²®éè¡109å·', 'province': 'æ¹åç', 'city': 'æ­¦æ±å¸', 'area': 'æ­¦æåº', 'street_id': 'e071925441a05bada80dd815', 'detail': 1, 'uid': 'e071925441a05bada80dd815'}, {'name': 'æ­¦æåºç¤¾ä¼ç¦å©é¢ç¤¾åºæå¡ä¸­å¿ç»¼åæå¡é¨', 'location': {'lat': 30.555151, 'lng': 114.312602}, 'address': 'æ¹åçæ­¦æ±å¸æ­¦æåºåè¡¥è¡24é2', 'province': 'æ¹åç', 'city': 'æ­¦æ±å¸', 'area': 'æ­¦æåº', 'street_id': '0abd1d60d5c35d84b35c6ab2', 'detail': 1, 'uid': '0abd1d60d5c35d84b35c6ab2'}, {'name': 'æ­¦æ±å¸å¿ç«¥ç¦å©é¢', 'location': {'lat': 30.55707, 'lng': 114.313724}, 'address': 'è±å­å±±1å·', 'province': 'æ¹åç', 'city': 'æ­¦æ±å¸', 'area': 'æ­¦æåº', 'street_id': '6835e3a7a726404ee21103af', 'detail': 1, 'uid': '6835e3a7a726404ee21103af'}]}, {'status': 0, 'message': 'ok', 'total': 0, 'results': []}, {'status': 0, 'message': 'ok', 'total': 5, 'results': [{'name': 'æ­¦æ±çº¢ææå¹¸ç¦æèé¢', 'location': {'lat': 30.596598, 'lng': 114.197638}, 'address': 'æ¹åçæ­¦æ±å¸ç¡å£åºå¤ç°äºè·¯çæ´»æçº¢ææ°æ31-4å·', 'province': 'æ¹åç', 'city': 'æ­¦æ±å¸', 'area': 'ç¡å£åº', 'street_id': '6e68ed0f9026c20a82288ade', 'detail': 1, 'uid': '6e68ed0f9026c20a82288ade'}, {'name': 'æ­¦æ±å¸ç¡å£åºç¤¾ä¼ç¦å©é¢', 'location': {'lat': 30.618901, 'lng': 114.171028}, 'address': 'èµè½å£å·¥åè·¯6å·', 'province': 'æ¹åç', 'city': 'æ­¦æ±å¸', 'area': 'ç¡å£åº', 'street_id': 'a5f7a3ba68c33325cafa5fe9', 'detail': 1, 'uid': 'a5f7a3ba68c33325cafa5fe9'}, {'name': 'æ­¦æ±å¸ç¡å£åºç¤¾ä¼ç¦å©é¢-åè½¦åº', 'location': {'lat': 30.618106, 'lng': 114.171767}, 'address': 'å·¥åè·¯ä¸é¿å®è·¯äº¤åå£ä¸å200ç±³', 'province': 'æ¹åç', 'city': 'æ­¦æ±å¸', 'area': 'ç¡å£åº', 'street_id': 'f680b0fbfdcb1a1a631c6723', 'detail': 1, 'uid': 'f680b0fbfdcb1a1a631c6723'}, {'name': 'ææ è¡éåäºå¤åæç¦å©é¢', 'location': {'lat': 30.603104, 'lng': 114.128687}, 'address': 'æ­¦æ±å¸ä¸è¥¿æ¹åºææ å¢©71', 'province': 'æ¹åç', 'city': 'æ­¦æ±å¸', 'area': 'ä¸è¥¿æ¹åº', 'street_id': 'c3f52fb421a43e630289725d', 'detail': 1, 'uid': 'c3f52fb421a43e630289725d'}, {'name': 'ç¡å£åºç¤¾ä¼ç¦å©é¢å»èå¤§æ¥¼', 'location': {'lat': 30.618522, 'lng': 114.171557}, 'address': 'èµè½å£å·¥åè·¯6å·', 'province': 'æ¹åç', 'city': 'æ­¦æ±å¸', 'area': 'ç¡å£åº', 'street_id': '360ddedb3084ff8a13293563', 'telephone': '(027)83225440', 'detail': 1, 'uid': '360ddedb3084ff8a13293563'}]}, {'status': 0, 'message': 'ok', 'total': 0, 'results': []}, {'status': 0, 'message': 'ok', 'total': 6, 'results': [{'name': 'æ­¦æ±å¸æ±æ±åºæ±å´è¡å±å®¶å»èæå¡ä¸­å¿', 'location': {'lat': 30.632388, 'lng': 114.263587}, 'address': 'æ±å´è¡åäºå¤æ¨æ±æ¹æµ©æµ·å°åºæ±å´è¡', 'province': 'æ¹åç', 'city': 'æ­¦æ±å¸', 'area': 'æ±æ±åº', 'street_id': 'fad4456ab62fd6cfc72ba166', 'detail': 1, 'uid': 'fad4456ab62fd6cfc72ba166'}, {'name': 'æ­¦æ±å¸ç¤¾ä¼ç¦å©é¢-è¥¿åé¨', 'location': {'lat': 30.621441, 'lng': 114.266838}, 'address': 'æ­¦æ±å¸æ±æ±åºåå±å¤§é198å·', 'province': 'æ¹åç', 'city': 'æ­¦æ±å¸', 'area': 'æ±æ±åº', 'street_id': '1013659547c3d98279b55caf', 'detail': 1, 'uid': '1013659547c3d98279b55caf'}, {'name': 'èç¦èç¦å©é¢', 'location': {'lat': 30.617562, 'lng': 114.257701}, 'address': 'å¸¸éè¡è¡éå¸¸éè¡åäºå¤æ±å£ç«è½¦ç«åè¥æ²³ä¸è·¯è´ºå®¶å¢©ç¤¾åºçå®é51å·', 'province': 'æ¹åç', 'city': 'æ­¦æ±å¸', 'area': 'æ±æ±åº', 'street_id': '959755cee0b5c5ee79b55c1d', 'detail': 1, 'uid': '959755cee0b5c5ee79b55c1d'}, {'name': 'æ­¦æ±å¸æ±æ±åºåå®¶å¢©è¡ç¤¾ä¼ç¦å©é¢', 'location': {'lat': 30.60988, 'lng': 114.286696}, 'address': 'æ¹åçæ­¦æ±å¸æ±æ±åºé«å®¶å°149', 'province': 'æ¹åç', 'city': 'æ­¦æ±å¸', 'area': 'æ±æ±åº', 'street_id': '21aea7e9664fc77aae31e5e3', 'detail': 1, 'uid': '21aea7e9664fc77aae31e5e3'}, {'name': 'æ­¦æ±å¸ç¤¾ä¼ç¦å©é¢-è¥¿é¨', 'location': {'lat': 30.620323, 'lng': 114.266598}, 'address': 'æ¹åçæ­¦æ±å¸æ±æ±åºç¦å©è·¯æ­¦æ±å¤©è¡å(å¤§æ­¦æ±1911è¥¿200ç±³)', 'province': 'æ¹åç', 'city': 'æ­¦æ±å¸', 'area': 'æ±æ±åº', 'street_id': '0c9a3552b4a61e53c61e51e5', 'detail': 1, 'uid': '0c9a3552b4a61e53c61e51e5'}, {'name': 'çº¢çä¹å¸®å¥åº·ç®¡çå¤©é¡ºå­ä¸­å¿', 'location': {'lat': 30.617675, 'lng': 114.22528}, 'address': 'æ¹åçæ­¦æ±å¸ç¡å£åºé¿é£è·¯éè¿', 'province': 'æ¹åç', 'city': 'æ­¦æ±å¸', 'area': 'ç¡å£åº', 'street_id': 'b44ab13372a30e2028201a3d', 'detail': 1, 'uid': 'b44ab13372a30e2028201a3d'}]}, {'status': 0, 'message': 'ok', 'total': 0, 'results': []}, {'status': 0, 'message': 'ok', 'total': 7, 'results': [{'name': 'å¹¸ç¦èå¹´ä¹å®¶', 'location': {'lat': 30.604861, 'lng': 114.356196}, 'address': 'åè°å¤§éä¸æèè¡äº¤åå£è¥¿150ç±³', 'province': 'æ¹åç', 'city': 'æ­¦æ±å¸', 'area': 'æ­¦æåº', 'street_id': '3cb0a1ca22e33ad7fea77849', 'detail': 1, 'uid': '3cb0a1ca22e33ad7fea77849'}, {'name': 'æ­¦æ±å¸æ­¦æåºé³åç¦å©é¢', 'location': {'lat': 30.616326, 'lng': 114.357203}, 'address': 'æ­¦æ±å¸éæºè·¯7å·', 'province': 'æ¹åç', 'city': 'æ­¦æ±å¸', 'area': 'æ­¦æåº', 'street_id': 'be54cde90dfbd75879f796a4', 'detail': 1, 'uid': 'be54cde90dfbd75879f796a4'}, {'name': 'æ¨å­è¡çººå¨ç¤¾åºé¿å¯¿æèé¢', 'location': {'lat': 30.61012, 'lng': 114.354191}, 'address': 'æ¹åçæ­¦æ±å¸æ­¦æåºæ¨å­è¡åäºå¤æ¨å­è¡çººå¨æ100å·', 'province': 'æ¹åç', 'city': 'æ­¦æ±å¸', 'area': 'æ­¦æåº', 'street_id': 'cde9e2c7dad866b4e91e97a4', 'detail': 1, 'uid': 'cde9e2c7dad866b4e91e97a4'}, {'name': 'æ­¦æåºæ¨å­è¡å±å®¶å»èæå¡ä¸­å¿', 'location': {'lat': 30.601462, 'lng': 114.35312}, 'address': 'åè°å¤§é625å·éè¿', 'province': 'æ¹åç', 'city': 'æ­¦æ±å¸', 'area': 'æ­¦æåº', 'street_id': 'cad5a9fcc624b38640ab9a00', 'detail': 1, 'uid': 'cad5a9fcc624b38640ab9a00'}, {'name': 'æ­¦æåºé³åç¦å©é¢-ä¸åé¨', 'location': {'lat': 30.616325, 'lng': 114.35746}, 'address': 'å½çè¡éè¿', 'province': 'æ¹åç', 'city': 'æ­¦æ±å¸', 'area': 'æ­¦æåº', 'street_id': '294ac7ac0098b9eb70455bb1', 'detail': 1, 'uid': '294ac7ac0098b9eb70455bb1'}, {'name': 'ä¸­å±æ­¦æåºé³åç¦å©é¢åæ¯é¨', 'location': {'lat': 30.616568, 'lng': 114.357675}, 'address': 'å½çè¡éè¿', 'province': 'æ¹åç', 'city': 'æ­¦æ±å¸', 'area': 'æ­¦æåº', 'street_id': 'b948baa35a9115338505bf77', 'detail': 1, 'uid': 'b948baa35a9115338505bf77'}, {'name': 'ç²¤æ±éç¤¾åº-å±å®¶å»èæå¡ä¸­å¿', 'location': {'lat': 30.610031, 'lng': 114.344675}, 'address': 'æ¨å­è¡åäºå¤ç²¤æ±éç¤¾åº(ç²¤æ±éç¤¾åºå±å§ä¼æè¾¹)', 'province': 'æ¹åç', 'city': 'æ­¦æ±å¸', 'area': 'æ­¦æåº', 'street_id': '2374ec02cc74713e36b06c38', 'detail': 1, 'uid': '2374ec02cc74713e36b06c38'}]}, {'status': 0, 'message': 'ok', 'total': 0, 'results': []}, {'status': 0, 'message': 'ok', 'total': 0, 'results': []}, {'status': 0, 'message': 'ok', 'total': 0, 'results': []}, {'status': 0, 'message': 'ok', 'total': 1, 'results': [{'name': 'æ­¦æ±å¸ä¸è¥¿æ¹åºå°åè·¯è¡å±å®¶å»èæå¡ä¸­å¿', 'location': {'lat': 30.657979, 'lng': 114.267931}, 'address': 'æ¹åçæ­¦æ±å¸ä¸è¥¿æ¹åºå°åè·¯å£é¹é©¾æ ¡(å¿«ä¹å®è´å¹¼å¿å­ä¸å)', 'province': 'æ¹åç', 'city': 'æ­¦æ±å¸', 'area': 'ä¸è¥¿æ¹åº', 'street_id': '17e8fc9281b902b39b68b427', 'telephone': '18827364899', 'detail': 1, 'uid': '17e8fc9281b902b39b68b427'}]}, {'status': 0, 'message': 'ok', 'total': 0, 'results': []}, {'status': 0, 'message': 'ok', 'total': 2, 'results': [{'name': 'æ­¦æ±å¸æ±å²¸åºèå¹´å¤§å­¦ç¦å©é¢æå­¦ç¹', 'location': {'lat': 30.694353, 'lng': 114.375846}, 'address': 'æ¹åçæ­¦æ±å¸æ±å²¸åºå´çè·¯203å·', 'province': 'æ¹åç', 'city': 'æ­¦æ±å¸', 'area': 'æ±å²¸åº', 'street_id': 'e7c61de0de3739cedb2f2854', 'detail': 1, 'uid': 'e7c61de0de3739cedb2f2854'}, {'name': 'ç¦å©é¢', 'location': {'lat': 30.696807, 'lng': 114.383694}, 'address': 'æ¹åçæ­¦æ±å¸æ±å²¸åºä¸ç¯çº¿', 'province': 'æ¹åç', 'city': 'æ­¦æ±å¸', 'area': 'æ±å²¸åº', 'street_id': '93c0795c612adf2f3d9a5e83', 'detail': 1, 'uid': '93c0795c612adf2f3d9a5e83'}]}, {'status': 0, 'message': 'ok', 'total': 0, 'results': []}, {'status': 0, 'message': 'ok', 'total': 2, 'results': [{'name': 'èé¾ä¸­å¿Â·å¬å¯', 'location': {'lat': 30.592518, 'lng': 114.437088}, 'address': 'è½éè·¯ä¸éä¸­è·¯äº¤åå£å150ç±³', 'province': 'æ¹åç', 'city': 'æ­¦æ±å¸', 'area': 'æ´ªå±±åº', 'street_id': '612c6e9589b8c29c5a3ac882', 'detail': 1, 'uid': '612c6e9589b8c29c5a3ac882'}, {'name': 'æ­¦ä¸è¡éé¹ç¤¾åºå±å®¶å»èæå¡ä¸­å¿', 'location': {'lat': 30.58155, 'lng': 114.461909}, 'address': 'æ­¦ä¸è·¯18å·', 'province': 'æ¹åç', 'city': 'æ­¦æ±å¸', 'area': 'éå±±åº', 'detail': 1, 'uid': 'f961617a2074c8b05a3ac8a2'}]}, {'status': 0, 'message': 'ok', 'total': 0, 'results': []}, {'status': 0, 'message': 'ok', 'total': 0, 'results': []}, {'status': 0, 'message': 'ok', 'total': 0, 'results': []}, {'status': 0, 'message': 'ok', 'total': 1, 'results': [{'name': 'ä¸­å±å·¦å²­éç¦å©é¢æ¯é¨å§åä¼', 'location': {'lat': 30.546278, 'lng': 114.612293}, 'address': 'åå·¥è·¯åå·¥è·¯7å·éè¿', 'province': 'æ¹åç', 'city': 'æ­¦æ±å¸', 'area': 'æ´ªå±±åº', 'street_id': '9fc42d87c286db069cf7798e', 'detail': 1, 'uid': '9fc42d87c286db069cf7798e'}]}, {'status': 0, 'message': 'ok', 'total': 0, 'results': []}, {'status': 0, 'message': 'ok', 'total': 2, 'results': [{'name': 'é¢åèå¹´å¬å¯', 'location': {'lat': 30.642173, 'lng': 114.408619}, 'address': '19è¡åæ²¿æ¸¯ä¸å··5', 'province': 'æ¹åç', 'city': 'æ­¦æ±å¸', 'area': 'éå±±åº', 'street_id': '871cdb4acb627f8c2cb17e76', 'telephone': '18907171989', 'detail': 1, 'uid': '871cdb4acb627f8c2cb17e76'}, {'name': 'å±å®¶å»èæå¡ä¸­å¿', 'location': {'lat': 30.648519, 'lng': 114.403403}, 'address': 'æ¹åçæ­¦æ±å¸éå±±åºå»ºè®¾ä¸è·¯1-é15éè¿', 'province': 'æ¹åç', 'city': 'æ­¦æ±å¸', 'area': 'éå±±åº', 'street_id': 'e9d1563bc807085a32870a6a', 'detail': 1, 'uid': 'e9d1563bc807085a32870a6a'}]}, {'status': 0, 'message': 'ok', 'total': 0, 'results': []}, {'status': 0, 'message': 'ok', 'total': 2, 'results': [{'name': 'æ­¦æ±å¸éå±±åºåå®ç¦å©é¢', 'location': {'lat': 30.615919, 'lng': 114.486845}, 'address': 'ç½çå±±åè¡å30é¨', 'province': 'æ¹åç', 'city': 'æ­¦æ±å¸', 'area': 'éå±±åº', 'street_id': '64d287e4e45e6a6343e19279', 'detail': 1, 'uid': '64d287e4e45e6a6343e19279'}, {'name': 'æ­¦æ±å¸éå±±åºç¤¾ä¼ç¦å©é¢', 'location': {'lat': 30.613936, 'lng': 114.490987}, 'address': 'åº·å¯¿è·¯3å·', 'province': 'æ¹åç', 'city': 'æ­¦æ±å¸', 'area': 'éå±±åº', 'street_id': 'e85e252754e3475395f08ce7', 'telephone': '(027)86421129', 'detail': 1, 'uid': 'e85e252754e3475395f08ce7'}]}, {'status': 0, 'message': 'ok', 'total': 0, 'results': []}, {'status': 0, 'message': 'ok', 'total': 1, 'results': [{'name': 'æ°æ´²åºåæ³ç¦å©é¢', 'location': {'lat': 30.59586, 'lng': 114.65499}, 'address': 'æ¹åçæ­¦æ±å¸æ°æ´²åºåæ³è¡éè®¡åçè²åå¬å®¤', 'province': 'æ¹åç', 'city': 'æ­¦æ±å¸', 'area': 'æ°æ´²åº', 'street_id': 'c371ded7d21801d0d1f49e18', 'detail': 1, 'uid': 'c371ded7d21801d0d1f49e18'}]}, {'status': 0, 'message': 'ok', 'total': 0, 'results': []}, {'status': 0, 'message': 'ok', 'total': 2, 'results': [{'name': 'æ­¦æ±æµä¸ä¹å®¶æ®ç¾äººç¦å©é¢', 'location': {'lat': 30.6492, 'lng': 114.430718}, 'address': 'å·¥äººæè·¯102', 'province': 'æ¹åç', 'city': 'æ­¦æ±å¸', 'area': 'éå±±åº', 'street_id': '6b88fc8e3f189d4ee8e58216', 'detail': 1, 'uid': '6b88fc8e3f189d4ee8e58216'}, {'name': 'æ­¦é¢æ®ç¾äººç¦å©é¢', 'location': {'lat': 30.649048, 'lng': 114.430765}, 'address': 'å·¥äººæè·¯102å·', 'province': 'æ¹åç', 'city': 'æ­¦æ±å¸', 'area': 'éå±±åº', 'street_id': 'edb8dd8fcd71a9e1471a3241', 'detail': 1, 'uid': 'edb8dd8fcd71a9e1471a3241'}]}, {'status': 0, 'message': 'ok', 'total': 0, 'results': []}, {'status': 0, 'message': 'ok', 'total': 3, 'results': [{'name': 'æ­¦æ±åå·¥åºå«ååºè¡ç¦å©é¢', 'location': {'lat': 30.653936, 'lng': 114.48513}, 'address': 'æ¹åçæ­¦æ±å¸æ´ªå±±åºå»ºè®¾æç»¿è²è·¯(æ­¦æ±å¸æ½æä¸­å­¦è¥¿å300ç±³)', 'province': 'æ¹åç', 'city': 'æ­¦æ±å¸', 'area': 'æ´ªå±±åº', 'street_id': '79d538a9a6d5c0036c3e1ba7', 'detail': 1, 'uid': '79d538a9a6d5c0036c3e1ba7'}, {'name': 'æ­¦æ±ä»çèå¹´å¬é¦', 'location': {'lat': 30.663021, 'lng': 114.572956}, 'address': 'é³é»è¡å¹³æ±è¥¿è·¯111å·', 'province': 'æ¹åç', 'city': 'æ­¦æ±å¸', 'area': 'æ°æ´²åº', 'street_id': '3d987a4bf906c38d6cc02c79', 'detail': 1, 'uid': '3d987a4bf906c38d6cc02c79'}, {'name': 'æ­¦æ±åå·¥åºå«ååºè¡ç¦å©é¢-è¥¿åé¨', 'location': {'lat': 30.653775, 'lng': 114.485349}, 'address': 'æ¹åçæ­¦æ±å¸æ´ªå±±åºç»¿è²è·¯å50ç±³', 'province': 'æ¹åç', 'city': 'æ­¦æ±å¸', 'area': 'æ´ªå±±åº', 'detail': 1, 'uid': '47aafb39b569ad1403ff2dcd'}]}, {'status': 0, 'message': 'ok', 'total': 0, 'results': []}, {'status': 0, 'message': 'ok', 'total': 2, 'results': [{'name': 'é³é»è¡ææç¦å©é¢', 'location': {'lat': 30.673369, 'lng': 114.652822}, 'address': 'å­¦å å¡é³é»è¡', 'province': 'æ¹åç', 'city': 'æ­¦æ±å¸', 'area': 'æ°æ´²åº', 'detail': 1, 'uid': '31f9101bf4807dc426e0a001'}, {'name': 'åæ³é¢å»åº·ä¹è', 'location': {'lat': 30.653084, 'lng': 114.60663}, 'address': 'æ­¦æ±å¸æ°æ´²åº', 'province': 'æ¹åç', 'city': 'æ­¦æ±å¸', 'area': 'æ°æ´²åº', 'detail': 1, 'uid': 'a1b6f8b97f711e291b11d53a'}]}, {'status': 0, 'message': 'ok', 'total': 0, 'results': []}][{'status': 0, 'message': 'ok', 'total': 0, 'results': []}, {'status': 0, 'message': 'ok', 'total': 0, 'results': []}, {'status': 0, 'message': 'ok', 'total': 0, 'results': []}, {'status': 0, 'message': 'ok', 'total': 0, 'results': []}, {'status': 0, 'message': 'ok', 'total': 0, 'results': []}, {'status': 0, 'message': 'ok', 'total': 0, 'results': []}, {'status': 0, 'message': 'ok', 'total': 0, 'results': []}, {'status': 0, 'message': 'ok', 'total': 0, 'results': []}, {'status': 0, 'message': 'ok', 'total': 0, 'results': []}, {'status': 0, 'message': 'ok', 'total': 0, 'results': []}, {'status': 0, 'message': 'ok', 'total': 1, 'results': [{'name': '武汉市洪山区福利院', 'location': {'lat': 30.483974, 'lng': 114.300454}, 'address': '湖北省武汉市洪山区白沙洲三路与烽胜路交汇处东北', 'province': '湖北省', 'city': '武汉市', 'area': '洪山区', 'street_id': '750ec165000a7c2b4d3a5991', 'detail': 1, 'uid': '750ec165000a7c2b4d3a5991'}]}, {'status': 0, 'message': 'ok', 'total': 0, 'results': []}, {'status': 0, 'message': 'ok', 'total': 3, 'results': [{'name': '沌阳福利院-西南门', 'location': {'lat': 30.497404, 'lng': 114.148433}, 'address': '车城大道392号', 'province': '湖北省', 'city': '武汉市', 'area': '蔡甸区', 'street_id': 'f4bbf9520352c3b3eb1e9705', 'detail': 1, 'uid': 'f4bbf9520352c3b3eb1e9705'}, {'name': '沌阳福利院', 'location': {'lat': 30.497166, 'lng': 114.148962}, 'address': '车城大道392号', 'province': '湖北省', 'city': '武汉市', 'area': '蔡甸区', 'street_id': '0adce3e2a483e66181a00c86', 'telephone': '(027)84239199', 'detail': 1, 'uid': '9dfc681426bbdf847adbd2f5'}, {'name': '护明德居家养老', 'location': {'lat': 30.512002, 'lng': 114.182989}, 'address': '经开万达G52', 'province': '湖北省', 'city': '武汉市', 'area': '汉阳区', 'street_id': '4ce7820be619bbe70482c216', 'telephone': '(027)84635595', 'detail': 1, 'uid': '4ce7820be619bbe70482c216'}]}, {'status': 0, 'message': 'ok', 'total': 0, 'results': []}, {'status': 0, 'message': 'ok', 'total': 6, 'results': [{'name': '汉阳区四新管委会老年人服务中心', 'location': {'lat': 30.516586, 'lng': 114.216134}, 'address': '湖北省武汉市汉阳区明集乡谢家灶村39号', 'province': '湖北省', 'city': '武汉市', 'area': '汉阳区', 'street_id': '1e7c24f23d64b7fe88db73e2', 'detail': 1, 'uid': '1e7c24f23d64b7fe88db73e2'}, {'name': '武汉市汉阳区社会福利院-西南门', 'location': {'lat': 30.530039, 'lng': 114.241667}, 'address': '杨泗港快速路北100米', 'province': '湖北省', 'city': '武汉市', 'area': '汉阳区', 'detail': 1, 'uid': '41ca88a23a2c64a2f02d8374'}, {'name': '武汉市汉阳区社会福利院-停车场', 'location': {'lat': 30.530597, 'lng': 114.241741}, 'address': '湖北省武汉市汉阳区杨泗港快速通道', 'province': '湖北省', 'city': '武汉市', 'area': '汉阳区', 'detail': 1, 'uid': 'f2cd1d61e23d9e910482c278'}, {'name': '洲头街夕阳红老年公寓(洲头二路)', 'location': {'lat': 30.531495, 'lng': 114.259904}, 'address': '洲头二村142号', 'province': '湖北省', 'city': '武汉市', 'area': '汉阳区', 'street_id': '2c0dcf2b576d45d39a005070', 'telephone': '(027)84530140', 'detail': 1, 'uid': '2c0dcf2b576d45d39a005070'}, {'name': '武汉市汉阳区社会福利院', 'location': {'lat': 30.530374, 'lng': 114.241649}, 'address': '湖北省武汉市汉阳区江杨泗港快速通道堤街办事处公公咀', 'province': '湖北省', 'city': '武汉市', 'area': '汉阳区', 'street_id': '71d8069834a977c6d8131801', 'detail': 1, 'uid': '71d8069834a977c6d8131801'}, {'name': '连通港西路汉阳福利院', 'location': {'lat': 30.53143, 'lng': 114.239679}, 'address': '42路;517路;547路;yx42路', 'province': '湖北省', 'city': '武汉市', 'area': '汉阳区', 'detail': 0, 'uid': '9650595e4d97b8fdae0457b1'}]}, {'status': 0, 'message': 'ok', 'total': 0, 'results': []}, {'status': 0, 'message': 'ok', 'total': 3, 'results': [{'name': '武昌区社会福利服务中心白沙洲区', 'location': {'lat': 30.528516, 'lng': 114.304033}, 'address': '八铺街83', 'province': '湖北省', 'city': '武汉市', 'area': '武昌区', 'street_id': 'fc05e1b20a202c4ac51e51a5', 'detail': 1, 'uid': 'fc05e1b20a202c4ac51e51a5'}, {'name': '洪山社会福利院-东南门', 'location': {'lat': 30.508498, 'lng': 114.385293}, 'address': '楚雄大道638号', 'province': '湖北省', 'city': '武汉市', 'area': '洪山区', 'street_id': '45d17ce5f4e347c63913fd4b', 'detail': 1, 'uid': '45d17ce5f4e347c63913fd4b'}, {'name': '武泰闸涂家沟老来乐社区福利院-西北门', 'location': {'lat': 30.521615, 'lng': 114.312219}, 'address': '建船路与钢厂路交叉口东100米', 'province': '湖北省', 'city': '武汉市', 'area': '武昌区', 'street_id': 'b9b016daea018ad7aecb66a1', 'detail': 1, 'uid': 'b9b016daea018ad7aecb66a1'}]}, {'status': 0, 'message': 'ok', 'total': 0, 'results': []}, {'status': 0, 'message': 'ok', 'total': 0, 'results': []}, {'status': 0, 'message': 'ok', 'total': 0, 'results': []}, {'status': 0, 'message': 'ok', 'total': 4, 'results': [{'name': '武汉市第二社会福利院(武汉龙泉山邦臣度假酒店东北)', 'location': {'lat': 30.422223, 'lng': 114.52447}, 'address': '湖北省武汉市江夏区流芳街道龙泉山风景区', 'province': '湖北省', 'city': '武汉市', 'area': '江夏区', 'detail': 1, 'uid': '93e3588926b73aae2dfaa7c0'}, {'name': '武汉市第二社会福利院(龙泉大道)', 'location': {'lat': 30.422029, 'lng': 114.519195}, 'address': '武汉市江夏区龙泉大道', 'province': '湖北省', 'city': '武汉市', 'area': '江夏区', 'detail': 1, 'uid': '306cb30b82a2bdb5ca2915b3'}, {'name': '流芳福利院', 'location': {'lat': 30.397094, 'lng': 114.538302}, 'address': '武汉市江夏区004县道北200米', 'province': '湖北省', 'city': '武汉市', 'area': '江夏区', 'detail': 1, 'uid': '8bb800d7cbe890466d20b944'}, {'name': '武汉市儿童福利院(龙泉山院区)', 'location': {'lat': 30.42209, 'lng': 114.528965}, 'address': '江夏龙泉山风景区郭家畈18号', 'province': '湖北省', 'city': '武汉市', 'area': '江夏区', 'telephone': '(027)81937056', 'detail': 1, 'uid': '98f9e35f2f7ca22db8bd63dd'}]}, {'status': 0, 'message': 'ok', 'total': 0, 'results': []}, {'status': 0, 'message': 'ok', 'total': 0, 'results': []}, {'status': 0, 'message': 'ok', 'total': 0, 'results': []}, {'status': 0, 'message': 'ok', 'total': 1, 'results': [{'name': '武汉东湖新技术开发区佛祖岭福利院', 'location': {'lat': 30.450686, 'lng': 114.451639}, 'address': '湖北省武汉市江夏区光谷武汉阳光老年病医院(流芳一路)', 'province': '湖北省', 'city': '武汉市', 'area': '江夏区', 'street_id': 'b492615995a75c910ab93a77', 'detail': 1, 'uid': 'b492615995a75c910ab93a77'}]}, {'status': 0, 'message': 'ok', 'total': 0, 'results': []}, {'status': 0, 'message': 'ok', 'total': 2, 'results': [{'name': '东湖高新区豹澥福利院', 'location': {'lat': 30.461163, 'lng': 114.544762}, 'address': '湖北省武汉市江夏区豹澥街道桥西路东湖高新区豹澥福利院', 'province': '湖北省', 'city': '武汉市', 'area': '江夏区', 'street_id': '92ce18c0740849e6f5c59cf9', 'detail': 1, 'uid': '92ce18c0740849e6f5c59cf9'}, {'name': '东湖高新区豹澥福利院-南门', 'location': {'lat': 30.461079, 'lng': 114.544706}, 'address': '湖北省武汉市江夏区高新五路南200米', 'province': '湖北省', 'city': '武汉市', 'area': '江夏区', 'street_id': '89245ec6e38e1b88932ca302', 'detail': 1, 'uid': '89245ec6e38e1b88932ca302'}]}, {'status': 0, 'message': 'ok', 'total': 0, 'results': []}, {'status': 0, 'message': 'ok', 'total': 1, 'results': [{'name': '庙岭福利院', 'location': {'lat': 30.444887, 'lng': 114.634316}, 'address': '湖北省鄂州市华容区新星路', 'province': '湖北省', 'city': '鄂州市', 'area': '华容区', 'detail': 1, 'uid': '6ba0d391a7bdf08d1ce999d4'}]}, {'status': 0, 'message': 'ok', 'total': 0, 'results': []}, {'status': 0, 'message': 'ok', 'total': 1, 'results': [{'name': '洪山区关山街纺大社区居家养老服务中心', 'location': {'lat': 30.488601, 'lng': 114.403842}, 'address': '纺织路与经纬一路交叉口南150米', 'province': '湖北省', 'city': '武汉市', 'area': '洪山区', 'street_id': '53302594dc3ed4d89e9d6873', 'detail': 1, 'uid': '53302594dc3ed4d89e9d6873'}]}, {'status': 0, 'message': 'ok', 'total': 0, 'results': []}, {'status': 0, 'message': 'ok', 'total': 2, 'results': [{'name': '九峰乡福利院', 'location': {'lat': 30.507693, 'lng': 114.485496}, 'address': '新屋梁附近', 'province': '湖北省', 'city': '武汉市', 'area': '洪山区', 'street_id': 'd72e6a4afc06430bf8dc85c5', 'detail': 1, 'uid': 'd72e6a4afc06430bf8dc85c5'}, {'name': '湖北逸仙苑健康养老园', 'location': {'lat': 30.51367, 'lng': 114.49386}, 'address': '森林大道北50米', 'province': '湖北省', 'city': '武汉市', 'area': '洪山区', 'detail': 1, 'uid': '35a09c48b96bec155cbe86dd'}]}, {'status': 0, 'message': 'ok', 'total': 0, 'results': []}, {'status': 0, 'message': 'ok', 'total': 0, 'results': []}, {'status': 0, 'message': 'ok', 'total': 0, 'results': []}, {'status': 0, 'message': 'ok', 'total': 1, 'results': [{'name': '汉阳区社会福利院(永丰分院)', 'location': {'lat': 30.563555, 'lng': 114.149753}, 'address': '汉阳大道南150米', 'province': '湖北省', 'city': '武汉市', 'area': '汉阳区', 'street_id': '34059f976e3f605771455be7', 'detail': 1, 'uid': '34059f976e3f605771455be7'}]}, {'status': 0, 'message': 'ok', 'total': 0, 'results': []}, {'status': 0, 'message': 'ok', 'total': 6, 'results': [{'name': '民权街社会福利院', 'location': {'lat': 30.580786, 'lng': 114.293277}, 'address': '民权街积庆里', 'province': '湖北省', 'city': '武汉市', 'area': '江汉区', 'street_id': '548a5cd8a27743b2fc0eb0ba', 'detail': 1, 'uid': '548a5cd8a27743b2fc0eb0ba'}, {'name': '汉阳区五里常青老年公寓', 'location': {'lat': 30.555996, 'lng': 114.258512}, 'address': '五里墩街办事处汉阳大道365号五里', 'province': '湖北省', 'city': '武汉市', 'area': '汉阳区', 'street_id': '00f1c7fb602b7c62c056ac0a', 'detail': 1, 'uid': '00f1c7fb602b7c62c056ac0a'}, {'name': '江汉区花楼水塔街居家养老服务中心', 'location': {'lat': 30.585898, 'lng': 114.293471}, 'address': '民主一街165-1号', 'province': '湖北省', 'city': '武汉市', 'area': '江汉区', 'street_id': '70de42be1fadd42d3486f4b6', 'detail': 1, 'uid': '70de42be1fadd42d3486f4b6'}, {'name': '父母村福利院', 'location': {'lat': 30.579594, 'lng': 114.275788}, 'address': '武汉市硚口区荣华东村4号', 'province': '湖北省', 'city': '武汉市', 'area': '硚口区', 'street_id': '0181a11ae4f72d61a21de908', 'telephone': '(027)85421773', 'detail': 1, 'uid': '0181a11ae4f72d61a21de908'}, {'name': '新华街社区老年福利院', 'location': {'lat': 30.588088, 'lng': 114.286628}, 'address': '单洞村10', 'province': '湖北省', 'city': '武汉市', 'area': '江汉区', 'street_id': '8bace6908f590d794251c00a', 'telephone': '18971516402', 'detail': 1, 'uid': '8bace6908f590d794251c00a'}, {'name': '武汉市江汉区万松街居家养老服务中心', 'location': {'lat': 30.594893, 'lng': 114.272585}, 'address': '湖北省武汉市江汉区万松园横路1', 'province': '湖北省', 'city': '武汉市', 'area': '江汉区', 'street_id': '287cb52e9f0f9e42c829154c', 'detail': 1, 'uid': '287cb52e9f0f9e42c829154c'}]}, {'status': 0, 'message': 'ok', 'total': 0, 'results': []}, {'status': 0, 'message': 'ok', 'total': 8, 'results': [{'name': '武汉市慈济儿童福利院-西南门', 'location': {'lat': 30.55675, 'lng': 114.313746}, 'address': '胭脂路与郎家巷交叉口东50米', 'province': '湖北省', 'city': '武汉市', 'area': '武昌区', 'detail': 1, 'uid': '997570c28b1f0a9971210bbc'}, {'name': '武汉市洪山区福泰老年公寓', 'location': {'lat': 30.585339, 'lng': 114.373318}, 'address': '中北东路24附12号', 'province': '湖北省', 'city': '武汉市', 'area': '洪山区', 'street_id': '5975e936718bb6f841afe6bc', 'telephone': '(027)88776226,(027)88166617', 'detail': 1, 'uid': '5975e936718bb6f841afe6bc'}, {'name': '户部巷社区居家养老服务中心', 'location': {'lat': 30.553377, 'lng': 114.302603}, 'address': '中华路街办事处民主路25号', 'province': '湖北省', 'city': '武汉市', 'area': '武昌区', 'street_id': '9bff9f6df5db9c574acc4a6d', 'detail': 1, 'uid': '9bff9f6df5db9c574acc4a6d'}, {'name': '武汉市武昌区社会福利院', 'location': {'lat': 30.553977, 'lng': 114.312237}, 'address': '湖北省武汉市武昌区粮道街109号', 'province': '湖北省', 'city': '武汉市', 'area': '武昌区', 'street_id': '730cb7627ab17a5a2ce67b7b', 'detail': 1, 'uid': '730cb7627ab17a5a2ce67b7b'}, {'name': '天颐之家', 'location': {'lat': 30.572699, 'lng': 114.366431}, 'address': '东亭路与黄鹂路交叉口南150米', 'province': '湖北省', 'city': '武汉市', 'area': '武昌区', 'street_id': '9ebf6e5807a81afcd0ff2360', 'detail': 1, 'uid': '9ebf6e5807a81afcd0ff2360'}, {'name': '武汉市武昌区社会福利院-西南门', 'location': {'lat': 30.553793, 'lng': 114.312301}, 'address': '粮道街109号', 'province': '湖北省', 'city': '武汉市', 'area': '武昌区', 'street_id': 'e071925441a05bada80dd815', 'detail': 1, 'uid': 'e071925441a05bada80dd815'}, {'name': '武昌区社会福利院社区服务中心综合服务部', 'location': {'lat': 30.555151, 'lng': 114.312602}, 'address': '湖北省武汉市武昌区后补街24附2', 'province': '湖北省', 'city': '武汉市', 'area': '武昌区', 'street_id': '0abd1d60d5c35d84b35c6ab2', 'detail': 1, 'uid': '0abd1d60d5c35d84b35c6ab2'}, {'name': '武汉市儿童福利院', 'location': {'lat': 30.55707, 'lng': 114.313724}, 'address': '花园山1号', 'province': '湖北省', 'city': '武汉市', 'area': '武昌区', 'street_id': '6835e3a7a726404ee21103af', 'detail': 1, 'uid': '6835e3a7a726404ee21103af'}]}, {'status': 0, 'message': 'ok', 'total': 0, 'results': []}, {'status': 0, 'message': 'ok', 'total': 5, 'results': [{'name': '武汉红星村幸福托老院', 'location': {'lat': 30.596598, 'lng': 114.197638}, 'address': '湖北省武汉市硚口区古田二路生活村红星新村31-4号', 'province': '湖北省', 'city': '武汉市', 'area': '硚口区', 'street_id': '6e68ed0f9026c20a82288ade', 'detail': 1, 'uid': '6e68ed0f9026c20a82288ade'}, {'name': '武汉市硚口区社会福利院', 'location': {'lat': 30.618901, 'lng': 114.171028}, 'address': '舵落口工农路6号', 'province': '湖北省', 'city': '武汉市', 'area': '硚口区', 'street_id': 'a5f7a3ba68c33325cafa5fe9', 'detail': 1, 'uid': 'a5f7a3ba68c33325cafa5fe9'}, {'name': '武汉市硚口区社会福利院-停车场', 'location': {'lat': 30.618106, 'lng': 114.171767}, 'address': '工农路与长宜路交叉口东南200米', 'province': '湖北省', 'city': '武汉市', 'area': '硚口区', 'street_id': 'f680b0fbfdcb1a1a631c6723', 'detail': 1, 'uid': 'f680b0fbfdcb1a1a631c6723'}, {'name': '慈惠街道办事处农村福利院', 'location': {'lat': 30.603104, 'lng': 114.128687}, 'address': '武汉市东西湖区慈惠墩71', 'province': '湖北省', 'city': '武汉市', 'area': '东西湖区', 'street_id': 'c3f52fb421a43e630289725d', 'detail': 1, 'uid': 'c3f52fb421a43e630289725d'}, {'name': '硚口区社会福利院养老大楼', 'location': {'lat': 30.618522, 'lng': 114.171557}, 'address': '舵落口工农路6号', 'province': '湖北省', 'city': '武汉市', 'area': '硚口区', 'street_id': '360ddedb3084ff8a13293563', 'telephone': '(027)83225440', 'detail': 1, 'uid': '360ddedb3084ff8a13293563'}]}, {'status': 0, 'message': 'ok', 'total': 0, 'results': []}, {'status': 0, 'message': 'ok', 'total': 6, 'results': [{'name': '武汉市江汉区汉兴街居家养老服务中心', 'location': {'lat': 30.632388, 'lng': 114.263587}, 'address': '汉兴街办事处杨汊湖浩海小区汉兴街', 'province': '湖北省', 'city': '武汉市', 'area': '江汉区', 'street_id': 'fad4456ab62fd6cfc72ba166', 'detail': 1, 'uid': 'fad4456ab62fd6cfc72ba166'}, {'name': '武汉市社会福利院-西北门', 'location': {'lat': 30.621441, 'lng': 114.266838}, 'address': '武汉市江汉区发展大道198号', 'province': '湖北省', 'city': '武汉市', 'area': '江汉区', 'street_id': '1013659547c3d98279b55caf', 'detail': 1, 'uid': '1013659547c3d98279b55caf'}, {'name': '蒙福苑福利院', 'location': {'lat': 30.617562, 'lng': 114.257701}, 'address': '常青街街道常青街办事处汉口火车站后襄河一路贺家墩社区玉宇里51号', 'province': '湖北省', 'city': '武汉市', 'area': '江汉区', 'street_id': '959755cee0b5c5ee79b55c1d', 'detail': 1, 'uid': '959755cee0b5c5ee79b55c1d'}, {'name': '武汉市江汉区唐家墩街社会福利院', 'location': {'lat': 30.60988, 'lng': 114.286696}, 'address': '湖北省武汉市江汉区高家台149', 'province': '湖北省', 'city': '武汉市', 'area': '江汉区', 'street_id': '21aea7e9664fc77aae31e5e3', 'detail': 1, 'uid': '21aea7e9664fc77aae31e5e3'}, {'name': '武汉市社会福利院-西门', 'location': {'lat': 30.620323, 'lng': 114.266598}, 'address': '湖北省武汉市江汉区福利路武汉天街北(大武汉1911西200米)', 'province': '湖北省', 'city': '武汉市', 'area': '江汉区', 'street_id': '0c9a3552b4a61e53c61e51e5', 'detail': 1, 'uid': '0c9a3552b4a61e53c61e51e5'}, {'name': '红瑞乐帮健康管理天顺园中心', 'location': {'lat': 30.617675, 'lng': 114.22528}, 'address': '湖北省武汉市硚口区长风路附近', 'province': '湖北省', 'city': '武汉市', 'area': '硚口区', 'street_id': 'b44ab13372a30e2028201a3d', 'detail': 1, 'uid': 'b44ab13372a30e2028201a3d'}]}, {'status': 0, 'message': 'ok', 'total': 0, 'results': []}, {'status': 0, 'message': 'ok', 'total': 7, 'results': [{'name': '幸福老年之家', 'location': {'lat': 30.604861, 'lng': 114.356196}, 'address': '友谊大道与才茂街交叉口西150米', 'province': '湖北省', 'city': '武汉市', 'area': '武昌区', 'street_id': '3cb0a1ca22e33ad7fea77849', 'detail': 1, 'uid': '3cb0a1ca22e33ad7fea77849'}, {'name': '武汉市武昌区阳光福利院', 'location': {'lat': 30.616326, 'lng': 114.357203}, 'address': '武汉市铁机路7号', 'province': '湖北省', 'city': '武汉市', 'area': '武昌区', 'street_id': 'be54cde90dfbd75879f796a4', 'detail': 1, 'uid': 'be54cde90dfbd75879f796a4'}, {'name': '杨园街纺器社区长寿托老院', 'location': {'lat': 30.61012, 'lng': 114.354191}, 'address': '湖北省武汉市武昌区杨园街办事处杨园街纺器村100号', 'province': '湖北省', 'city': '武汉市', 'area': '武昌区', 'street_id': 'cde9e2c7dad866b4e91e97a4', 'detail': 1, 'uid': 'cde9e2c7dad866b4e91e97a4'}, {'name': '武昌区杨园街居家养老服务中心', 'location': {'lat': 30.601462, 'lng': 114.35312}, 'address': '友谊大道625号附近', 'province': '湖北省', 'city': '武汉市', 'area': '武昌区', 'street_id': 'cad5a9fcc624b38640ab9a00', 'detail': 1, 'uid': 'cad5a9fcc624b38640ab9a00'}, {'name': '武昌区阳光福利院-东南门', 'location': {'lat': 30.616325, 'lng': 114.35746}, 'address': '国盛街附近', 'province': '湖北省', 'city': '武汉市', 'area': '武昌区', 'street_id': '294ac7ac0098b9eb70455bb1', 'detail': 1, 'uid': '294ac7ac0098b9eb70455bb1'}, {'name': '中共武昌区阳光福利院党支部', 'location': {'lat': 30.616568, 'lng': 114.357675}, 'address': '国盛街附近', 'province': '湖北省', 'city': '武汉市', 'area': '武昌区', 'street_id': 'b948baa35a9115338505bf77', 'detail': 1, 'uid': 'b948baa35a9115338505bf77'}, {'name': '粤汉里社区-居家养老服务中心', 'location': {'lat': 30.610031, 'lng': 114.344675}, 'address': '杨园街办事处粤汉里社区(粤汉里社区居委会旁边)', 'province': '湖北省', 'city': '武汉市', 'area': '武昌区', 'street_id': '2374ec02cc74713e36b06c38', 'detail': 1, 'uid': '2374ec02cc74713e36b06c38'}]}, {'status': 0, 'message': 'ok', 'total': 0, 'results': []}, {'status': 0, 'message': 'ok', 'total': 0, 'results': []}, {'status': 0, 'message': 'ok', 'total': 0, 'results': []}, {'status': 0, 'message': 'ok', 'total': 1, 'results': [{'name': '武汉市东西湖区将军路街居家养老服务中心', 'location': {'lat': 30.657979, 'lng': 114.267931}, 'address': '湖北省武汉市东西湖区将军路圣鹏驾校(快乐宝贝幼儿园东北)', 'province': '湖北省', 'city': '武汉市', 'area': '东西湖区', 'street_id': '17e8fc9281b902b39b68b427', 'telephone': '18827364899', 'detail': 1, 'uid': '17e8fc9281b902b39b68b427'}]}, {'status': 0, 'message': 'ok', 'total': 0, 'results': []}, {'status': 0, 'message': 'ok', 'total': 2, 'results': [{'name': '武汉市江岸区老年大学福利院教学点', 'location': {'lat': 30.694353, 'lng': 114.375846}, 'address': '湖北省武汉市江岸区兴盛路203号', 'province': '湖北省', 'city': '武汉市', 'area': '江岸区', 'street_id': 'e7c61de0de3739cedb2f2854', 'detail': 1, 'uid': 'e7c61de0de3739cedb2f2854'}, {'name': '福利院', 'location': {'lat': 30.696807, 'lng': 114.383694}, 'address': '湖北省武汉市江岸区三环线', 'province': '湖北省', 'city': '武汉市', 'area': '江岸区', 'street_id': '93c0795c612adf2f3d9a5e83', 'detail': 1, 'uid': '93c0795c612adf2f3d9a5e83'}]}, {'status': 0, 'message': 'ok', 'total': 0, 'results': []}, {'status': 0, 'message': 'ok', 'total': 2, 'results': [{'name': '老龄中心·公寓', 'location': {'lat': 30.592518, 'lng': 114.437088}, 'address': '落雁路与雁中路交叉口南150米', 'province': '湖北省', 'city': '武汉市', 'area': '洪山区', 'street_id': '612c6e9589b8c29c5a3ac882', 'detail': 1, 'uid': '612c6e9589b8c29c5a3ac882'}, {'name': '武东街陆鹞社区居家养老服务中心', 'location': {'lat': 30.58155, 'lng': 114.461909}, 'address': '武东路18号', 'province': '湖北省', 'city': '武汉市', 'area': '青山区', 'detail': 1, 'uid': 'f961617a2074c8b05a3ac8a2'}]}, {'status': 0, 'message': 'ok', 'total': 0, 'results': []}, {'status': 0, 'message': 'ok', 'total': 0, 'results': []}, {'status': 0, 'message': 'ok', 'total': 0, 'results': []}, {'status': 0, 'message': 'ok', 'total': 1, 'results': [{'name': '中共左岭镇福利院支部委员会', 'location': {'lat': 30.546278, 'lng': 114.612293}, 'address': '化工路化工路7号附近', 'province': '湖北省', 'city': '武汉市', 'area': '洪山区', 'street_id': '9fc42d87c286db069cf7798e', 'detail': 1, 'uid': '9fc42d87c286db069cf7798e'}]}, {'status': 0, 'message': 'ok', 'total': 0, 'results': []}, {'status': 0, 'message': 'ok', 'total': 2, 'results': [{'name': '钢城老年公寓', 'location': {'lat': 30.642173, 'lng': 114.408619}, 'address': '19街坊沿港一巷5', 'province': '湖北省', 'city': '武汉市', 'area': '青山区', 'street_id': '871cdb4acb627f8c2cb17e76', 'telephone': '18907171989', 'detail': 1, 'uid': '871cdb4acb627f8c2cb17e76'}, {'name': '居家养老服务中心', 'location': {'lat': 30.648519, 'lng': 114.403403}, 'address': '湖北省武汉市青山区建设七路1-附15附近', 'province': '湖北省', 'city': '武汉市', 'area': '青山区', 'street_id': 'e9d1563bc807085a32870a6a', 'detail': 1, 'uid': 'e9d1563bc807085a32870a6a'}]}, {'status': 0, 'message': 'ok', 'total': 0, 'results': []}, {'status': 0, 'message': 'ok', 'total': 2, 'results': [{'name': '武汉市青山区君安福利院', 'location': {'lat': 30.615919, 'lng': 114.486845}, 'address': '白玉山四街坊30门', 'province': '湖北省', 'city': '武汉市', 'area': '青山区', 'street_id': '64d287e4e45e6a6343e19279', 'detail': 1, 'uid': '64d287e4e45e6a6343e19279'}, {'name': '武汉市青山区社会福利院', 'location': {'lat': 30.613936, 'lng': 114.490987}, 'address': '康寿路3号', 'province': '湖北省', 'city': '武汉市', 'area': '青山区', 'street_id': 'e85e252754e3475395f08ce7', 'telephone': '(027)86421129', 'detail': 1, 'uid': 'e85e252754e3475395f08ce7'}]}, {'status': 0, 'message': 'ok', 'total': 0, 'results': []}, {'status': 0, 'message': 'ok', 'total': 1, 'results': [{'name': '新洲区双柳福利院', 'location': {'lat': 30.59586, 'lng': 114.65499}, 'address': '湖北省武汉市新洲区双柳街道计划生育办公室', 'province': '湖北省', 'city': '武汉市', 'area': '新洲区', 'street_id': 'c371ded7d21801d0d1f49e18', 'detail': 1, 'uid': 'c371ded7d21801d0d1f49e18'}]}, {'status': 0, 'message': 'ok', 'total': 0, 'results': []}, {'status': 0, 'message': 'ok', 'total': 2, 'results': [{'name': '武汉济世之家残疾人福利院', 'location': {'lat': 30.6492, 'lng': 114.430718}, 'address': '工人村路102', 'province': '湖北省', 'city': '武汉市', 'area': '青山区', 'street_id': '6b88fc8e3f189d4ee8e58216', 'detail': 1, 'uid': '6b88fc8e3f189d4ee8e58216'}, {'name': '武钢残疾人福利院', 'location': {'lat': 30.649048, 'lng': 114.430765}, 'address': '工人村路102号', 'province': '湖北省', 'city': '武汉市', 'area': '青山区', 'street_id': 'edb8dd8fcd71a9e1471a3241', 'detail': 1, 'uid': 'edb8dd8fcd71a9e1471a3241'}]}, {'status': 0, 'message': 'ok', 'total': 0, 'results': []}, {'status': 0, 'message': 'ok', 'total': 3, 'results': [{'name': '武汉化工区八吉府街福利院', 'location': {'lat': 30.653936, 'lng': 114.48513}, 'address': '湖北省武汉市洪山区建设村绿色路(武汉市挽月中学西北300米)', 'province': '湖北省', 'city': '武汉市', 'area': '洪山区', 'street_id': '79d538a9a6d5c0036c3e1ba7', 'detail': 1, 'uid': '79d538a9a6d5c0036c3e1ba7'}, {'name': '武汉仁生老年公馆', 'location': {'lat': 30.663021, 'lng': 114.572956}, 'address': '阳逻街平江西路111号', 'province': '湖北省', 'city': '武汉市', 'area': '新洲区', 'street_id': '3d987a4bf906c38d6cc02c79', 'detail': 1, 'uid': '3d987a4bf906c38d6cc02c79'}, {'name': '武汉化工区八吉府街福利院-西南门', 'location': {'lat': 30.653775, 'lng': 114.485349}, 'address': '湖北省武汉市洪山区绿色路北50米', 'province': '湖北省', 'city': '武汉市', 'area': '洪山区', 'detail': 1, 'uid': '47aafb39b569ad1403ff2dcd'}]}, {'status': 0, 'message': 'ok', 'total': 0, 'results': []}, {'status': 0, 'message': 'ok', 'total': 2, 'results': [{'name': '阳逻街月明福利院', 'location': {'lat': 30.673369, 'lng': 114.652822}, 'address': '学堂塆阳逻街', 'province': '湖北省', 'city': '武汉市', 'area': '新洲区', 'detail': 1, 'uid': '31f9101bf4807dc426e0a001'}, {'name': '双柳颐养康乐苑', 'location': {'lat': 30.653084, 'lng': 114.60663}, 'address': '武汉市新洲区', 'province': '湖北省', 'city': '武汉市', 'area': '新洲区', 'detail': 1, 'uid': 'a1b6f8b97f711e291b11d53a'}]}, {'status': 0, 'message': 'ok', 'total': 0, 'results': []}]